{"type": "FeatureCollection", "features": [{"type": "Feature", "properties": {"marker": "reference_point", "id": "jura_west", "region": "Jura West", "name": "Mauborget / Suchet", "elevation_ref": 1200}, "geometry": {"type": "Point", "coordinates": [6.5401, 46.8286]}}, {"type": "Feature", "properties": {"marker": "reference_point", "id": "jura_zentral", "region": "Jura Zentral", "name": "Weissenstein", "elevation_ref": 1280}, "geometry": {"type": "Point", "coordinates": [7.5097, 47.2536]}}, {"type": "Feature", "properties": {"marker": "reference_point", "id": "jura_ost", "region": "Jura Ost", "name": "Wasserflue / Geissflue", "elevation_ref": 900}, "geometry": {"type": "Point", "coordinates": [7.957, 47.42]}}, {"type": "Feature", "properties": {"marker": "reference_point", "id": "mittelland_west", "region": "Mittelland West", "name": "Moudon", "elevation_ref": 700}, "geometry": {"type": "Point", "coordinates": [6.7972, 46.6685]}}, {"type": "Feature", "properties": {"marker": "reference_point", "id": "mittelland_zentral", "region": "Mittelland Zentral", "name": "Napf", "elevation_ref": 1400}, "geometry": {"type": "Point", "coordinates": [7.9395, 47.0041]}}, {"type": "Feature", "properties": {"marker": "reference_point", "id": "mittelland_ost", "region": "Mittelland Ost", "name": "Uetliberg Balderen", "elevation_ref": 730}, "geometry": {"type": "Point", "coordinates": [8.4907, 47.3504]}}, {"type": "Feature", "properties": {"marker": "reference_point", "id": "freiburger_voralpen", "region": "Freiburger Voralpen", "name": "Moléson", "elevation_ref": 1950}, "geometry": {"type": "Point", "coordinates": [7.0175, 46.5492]}}, {"type": "Feature", "properties": {"marker": "reference_point", "id": "berner_voralpen", "region": "Berner Voralpen", "name": "Niederhorn", "elevation_ref": 1950}, "geometry": {"type": "Point", "coordinates": [7.7731, 46.7082]}}, {"type": "Feature", "properties": {"marker": "reference_point", "id": "zentralschweizer_voralpen", "region": "Zentralschweizer Voralpen", "name": "Engelberg Brunni", "elevation_ref": 1860}, "geometry": {"type": "Point", "coordinates": [8.406, 46.837]}}, {"type": "Feature", "properties": {"marker": "reference_point", "id": "glarnerland_walensee", "region": "Glarnerland / Walensee", "name": "Schrina", "elevation_ref": 1300}, "geometry": {"type": "Point", "coordinates": [9.294, 47.135]}}, {"type": "Feature", "properties": {"marker": "reference_point", "id": "alpstein", "region": "Alpstein / Ostschweiz", "name": "Ebenalp", "elevation_ref": 1640}, "geometry": {"type": "Point", "coordinates": [9.4081, 47.2839]}}, {"type": "Feature", "properties": {"marker": "reference_point", "id": "unterwallis", "region": "Unterwallis", "name": "Verbier Les Ruinettes", "elevation_ref": 2200}, "geometry": {"type": "Point", "coordinates": [7.2458, 46.0844]}}, {"type": "Feature", "properties": {"marker": "reference_point", "id": "zentralwallis", "region": "Zentralwallis", "name": "Leukerbad / Loetschental", "elevation_ref": 2100}, "geometry": {"type": "Point", "coordinates": [7.85, 46.47]}}, {"type": "Feature", "properties": {"marker": "reference_point", "id": "oberwallis_goms", "region": "Oberwallis / Goms", "name": "Fiescheralp / Kühboden", "elevation_ref": 2200}, "geometry": {"type": "Point", "coordinates": [8.1102, 46.4086]}}, {"type": "Feature", "properties": {"marker": "reference_point", "id": "haslital_grimsel", "region": "Haslital / Grimselgebiet", "name": "Hasliberg Planplatten", "elevation_ref": 2200}, "geometry": {"type": "Point", "coordinates": [8.243, 46.745]}}, {"type": "Feature", "properties": {"marker": "reference_point", "id": "urner_alpen", "region": "Urner Alpen", "name": "Eggberge Altdorf", "elevation_ref": 1500}, "geometry": {"type": "Point", "coordinates": [8.647, 46.901]}}, {"type": "Feature", "properties": {"marker": "reference_point", "id": "surselva", "region": "Surselva", "name": "Flims Crap Sogn Gion", "elevation_ref": 2200}, "geometry": {"type": "Point", "coordinates": [9.2131, 46.8353]}}, {"type": "Feature", "properties": {"marker": "reference_point", "id": "chur_mittelbuenden", "region": "Chur / Mittelbünden", "name": "Fanas Eggli", "elevation_ref": 1700}, "geometry": {"type": "Point", "coordinates": [9.68, 46.993]}}, {"type": "Feature", "properties": {"marker": "reference_point", "id": "engadin_ober", "region": "Engadin Ober", "name": "Muottas Muragl", "elevation_ref": 2450}, "geometry": {"type": "Point", "coordinates": [9.9028, 46.5225]}}, {"type": "Feature", "properties": {"marker": "reference_point", "id": "engadin_unter", "region": "Engadin Unter", "name": "Scuol Motta Naluns", "elevation_ref": 2100}, "geometry": {"type": "Point", "coordinates": [10.2786, 46.8125]}}, {"type": "Feature", "properties": {"marker": "reference_point", "id": "tessin_nord", "region": "Tessin Nord", "name": "Carì", "elevation_ref": 2000}, "geometry": {"type": "Point", "coordinates": [8.815, 46.4861]}}, {"type": "Feature", "properties": {"marker": "reference_point", "id": "tessin_zentral", "region": "Tessin Zentral", "name": "Locarno Cimetta", "elevation_ref": 1650}, "geometry": {"type": "Point", "coordinates": [8.7944, 46.2025]}}, {"type": "Feature", "properties": {"marker": "reference_point", "id": "suedbuenden", "region": "Südbünden", "name": "Santa Maria in Calanca", "elevation_ref": 1500}, "geometry": {"type": "Point", "coordinates": [9.145, 46.2644]}}, {"type": "Feature", "properties": {"marker": "reference_point", "id": "mattertal_saastal", "region": "Mattertal / Saastal", "name": "Graehen", "elevation_ref": 2000}, "geometry": {"type": "Point", "coordinates": [7.65, 46.06]}}, {"type": "Feature", "properties": {"marker": "reference_point", "id": "waadtlaender_alpen", "region": "Waadtlaender Alpen", "name": "Col du Pillon / Leysin", "elevation_ref": 1600}, "geometry": {"type": "Point", "coordinates": [7.0, 46.26]}}, {"type": "Feature", "properties": {"marker": "reference_point", "id": "genferseeregion", "region": "Genferseeregion", "name": "Lavaux / Jorat", "elevation_ref": 800}, "geometry": {"type": "Point", "coordinates": [6.38, 46.38]}}, {"type": "Feature", "properties": {"marker": "reference_point", "id": "schwarzsee_gantrisch", "region": "Schwarzsee / Gantrisch", "name": "Gantrisch / Schwarzsee", "elevation_ref": 1500}, "geometry": {"type": "Point", "coordinates": [7.1, 46.65]}}, {"type": "Feature", "properties": {"marker": "reference_point", "id": "berner_oberland", "region": "Berner Oberland", "name": "Interlaken / Niederhorn", "elevation_ref": 1800}, "geometry": {"type": "Point", "coordinates": [7.75, 46.85]}}, {"type": "Feature", "properties": {"marker": "reference_point", "id": "seeland_emmental", "region": "Seeland / Emmental", "name": "Belp / Bantiger", "elevation_ref": 600}, "geometry": {"type": "Point", "coordinates": [7.6, 47.14]}}]}